{
   "grounds":[
      {
         "id": 1,
         "lat":"-37.8382733",
         "long":"145.1869663",
         "address":"1 Terrara Rd, Vermont VIC 3133",
         "title":"Vermont Reserve",
         "team":"Vermont Eagles Football Club",
         "image_url": "https://pbs.twimg.com/profile_images/483085093263519744/wyNOKZFt_400x400.png"
      },
      {
         "id": 2,
         "lat":"-37.814065",
         "long":"145.078540",
         "address":"Cherry Rd, Balwyn VIC 3103",
         "title":"Balwyn Park",
         "team":"Balwyn Football Club",
         "image_url": "https://pbs.twimg.com/profile_images/3482226754/6feff130b0a7c0d1c3a724fef9ca3a85_400x400.jpeg"
      },
      {
         "id": 3,
         "lat":"-37.8091562",
         "long":"145.2658452",
         "address":"Cnr Eastfield Road &, Bayswater Rd, Croydon South VIC 3136",
         "title":"Cheong Park",
         "team":"South Croydon Football Club",
         "image_url": "https://pbs.twimg.com/profile_images/679254114052648960/EHdY0mt0.png"
      },
      {
         "id": 4,
         "lat":"-37.7844109",
         "long":"145.1311019",
         "address":"2-50 J J Tully Dr, Doncaster VIC 3108",
         "title":"Schramms Reserve",
         "team":"Doncaster Football Club",
         "image_url": "https://pbs.twimg.com/profile_images/2298826996/Sharks_Logo.jpg"
      },
      {
         "id": 5,
         "lat":"-37.8214043",
         "long":"145.1528966",
         "address":"Central Rd, Blackburn VIC 3130",
         "title":"Morton Park",
         "team":"Blackburn Football Club",
         "image_url": "http://www-static.spulsecdn.net/pics/00/01/41/93/1419350_1_S.jpg"
      },
      {
         "id": 6,
         "lat":"-37.8030093",
         "long":"145.2347309",
         "address":"59 Mullum Mullum Rd, Ringwood VIC 3134",
         "title":"Mullum Mullum Reserve",
         "team":"Norwood Football Club",
         "image_url": "https://www.norwood.org.au/NorwoodFootballClub_03082014.jpg"
      },
      {
         "id": 7,
         "lat":"-37.9771179",
         "long":"145.1667947",
         "address":"46/56 Moodemere St, Noble Park VIC 3174",
         "title":"Noble Park Football Ground",
         "team":"Noble Park Football Club",
         "image_url": "http://www-static2.spulsecdn.net/pics/00/36/20/43/36204342_1_M.jpg"
       },
       {
          "id": 8,
          "lat":"-37.7832962",
          "long":"145.2446599",
          "address":"Wonga Rd, Ringwood North VIC 3134",
          "title":"Quambee Reserve",
          "team":"North Ringwood Football Club",
          "image_url": "http://www-static.spulsecdn.net/pics/00/00/29/95/299507_1_S.jpg"
       },
       {
          "id": 9,
          "lat":"-37.8092105",
          "long":"145.2433639",
          "address":"Mt Dandenong Rd, Ringwood East VIC 3135",
          "title":"East Ringwood Reserve",
          "team":"East Ringwood Football Club",
          "image_url": "http://www-static.spulsecdn.net/pics/00/00/94/11/941187_1_S.jpg"
       },
       {
          "id": 10,
          "lat":"-37.9426932",
          "long":"145.2290186",
          "address":"Cnr Police Rd & Stud Rd, Rowville VIC 3178",
          "title":"Rowville Reserve",
          "team":"Rowville Football Club",
          "image_url": "https://pbs.twimg.com/profile_images/778572621138890752/Ve-M1Q_n.jpg"
       },
       {
          "id": 11,
          "lat":"-37.8372971",
          "long":"145.2686522",
          "address":"Bayswater Rd, Bayswater VIC 3153",
          "title":"Appleby Oval",
          "team":"Bayswater Football Club",
          "image_url": "https://pbs.twimg.com/profile_images/585841092169342977/9ZNojCN0.jpg"
       }
   ],
   "last_modified":"Sun, 19 Jul 2017 03:45:05 GMT"
}
